[
  {
    "id": 1,
    "name": "Grace Street Coffee & Desserts",
    "address": "17 W 32nd St, New York, NY 10001, USA",
    "lat": 40.7484,
    "lng": -73.987,
    "verified": true,
    "verifiedSources": [
      "TikTok: @cookieenthusiast",
      "Instagram: @gracestreet"
    ],
    "discoveredFrom": "manual",
    "discoveredAt": "2026-01-25T00:00:00.000Z"
  },
  {
    "id": 2,
    "name": "Bear Donut",
    "address": "40 W 31st St, New York, NY 10001, USA",
    "lat": 40.7472,
    "lng": -73.9882,
    "verified": true,
    "verifiedSources": [
      "Instagram: @beardonutinnyc"
    ],
    "discoveredFrom": "manual",
    "discoveredAt": "2026-01-22T00:00:00.000Z"
  },
  {
    "id": 3,
    "name": "Seoul Sweets",
    "address": "308 5th Ave, New York, NY 10001, USA",
    "lat": 40.7488,
    "lng": -73.9854,
    "verified": true,
    "verifiedSources": [
      "TikTok: @seoulsweetsnyc",
      "Instagram: @seoulsweetsnyc"
    ],
    "discoveredFrom": "manual",
    "discoveredAt": "2026-01-20T00:00:00.000Z"
  },
  {
    "id": 4,
    "name": "Croffle House",
    "address": "40-17 149th Pl, Flushing, NY 11354, USA",
    "lat": 40.7603,
    "lng": -73.8293,
    "verified": false,
    "verifiedSources": [
      "Yelp",
      "Uber Eats",
      "Google"
    ],
    "discoveredFrom": "manual",
    "discoveredAt": "2026-02-02T23:26:46.509Z"
  },
  {
    "id": 5,
    "name": "GoGoJang Cafe",
    "address": "150 W 55th St, New York, NY 10019, USA",
    "lat": 40.7649,
    "lng": -73.9782,
    "verified": false,
    "verifiedSources": [
      "Google",
      "Corner",
      "Atly"
    ],
    "discoveredFrom": "manual",
    "discoveredAt": "2026-02-02T23:26:46.509Z"
  }
]